{"d":[{"__type":"NG.Portal.Meny.Web.Templates.Util.Market","Name":"MENY Asker","Address":"ASKER Trekanten Knud Askers v 20","Longitude":"10.4343861","Latitude":"59.8356996","MarketId":13968},{"__type":"NG.Portal.Meny.Web.Templates.Util.Market","Name":"MENY Bekkestua","Address":"BEKKESTUA Bærumsveien 207","Longitude":"10.5899049","Latitude":"59.9182043","MarketId":14013},{"__type":"NG.Portal.Meny.Web.Templates.Util.Market","Name":"MENY Bærums Verk","Address":"BÆRUMS VERK Vertshusveien 2","Longitude":"10.5019757","Latitude":"59.9418885","MarketId":13978},{"__type":"NG.Portal.Meny.Web.Templates.Util.Market","Name":"MENY Drøbak City","Address":"DRØBAK Drøbak City","Longitude":"10.6349979","Latitude":"59.6667729","MarketId":13960},{"__type":"NG.Portal.Meny.Web.Templates.Util.Market","Name":"MENY Greverud","Address":"OPPEGÅRD Flåtestadvn. 3","Longitude":"10.803079605102539","Latitude":"59.7739206172775","MarketId":13904},{"__type":"NG.Portal.Meny.Web.Templates.Util.Market","Name":"MENY Helgerudhallen","Address":"SANDVIKA Rådmann Halmratsvei 6","Longitude":"10.5249915","Latitude":"59.8900648","MarketId":13910},{"__type":"NG.Portal.Meny.Web.Templates.Util.Market","Name":"MENY Holmen","Address":"NESBRU Holmengt. 6","Longitude":"10.4897010","Latitude":"59.8562200","MarketId":13982},{"__type":"NG.Portal.Meny.Web.Templates.Util.Market","Name":"Meny Jarhuset","Address":"JAR Jarmyra 1","Longitude":"10.6159141","Latitude":"59.9258547","MarketId":26864},{"__type":"NG.Portal.Meny.Web.Templates.Util.Market","Name":"MENY Jessheim","Address":"JESSHEIM Furusethgate 5","Longitude":"11.1725102","Latitude":"60.1436523","MarketId":13941},{"__type":"NG.Portal.Meny.Web.Templates.Util.Market","Name":"MENY Kolsås","Address":"KOLSÅS Rødskiferv 1","Longitude":"10.5017189","Latitude":"59.9165779","MarketId":13935},{"__type":"NG.Portal.Meny.Web.Templates.Util.Market","Name":"MENY Langhus","Address":"LANGHUS Langhus Senter","Longitude":"10.8445918","Latitude":"59.7548745","MarketId":13932},{"__type":"NG.Portal.Meny.Web.Templates.Util.Market","Name":"MENY Lillestrøm","Address":"LILLESTRØM Parkalleen 3","Longitude":"11.0490693","Latitude":"59.9579374","MarketId":14014},{"__type":"NG.Portal.Meny.Web.Templates.Util.Market","Name":"MENY Lørenskog","Address":"RASTA Triaden Storsenter Gamleveien 88","Longitude":"10.953369140625","Latitude":"59.91915081344697","MarketId":22523},{"__type":"NG.Portal.Meny.Web.Templates.Util.Market","Name":"Meny Nordbyveien","Address":"SKI Nordbyveien","Longitude":"10.81478","Latitude":"59.72008","MarketId":27602},{"__type":"NG.Portal.Meny.Web.Templates.Util.Market","Name":"MENY Rasta","Address":"RASTA Gamleveien 45","Longitude":"10.937061309814453","Latitude":"59.92353858269912","MarketId":14012},{"__type":"NG.Portal.Meny.Web.Templates.Util.Market","Name":"MENY Rykkinn","Address":"RYKKINN Muninsvei 1","Longitude":"10.4855987","Latitude":"59.9233297","MarketId":13971},{"__type":"NG.Portal.Meny.Web.Templates.Util.Market","Name":"MENY Skedsmokorset","Address":"SKEDSMOKORSET Presthagaveien 20","Longitude":"11.0332465","Latitude":"60.0042390","MarketId":13940},{"__type":"NG.Portal.Meny.Web.Templates.Util.Market","Name":"MENY Ski","Address":"SKI Eikeliv 1","Longitude":"10.8361052","Latitude":"59.7134547","MarketId":13976},{"__type":"NG.Portal.Meny.Web.Templates.Util.Market","Name":"MENY Skjetten","Address":"SKJETTEN Skjettentorvet Nordensv 15","Longitude":"11.0072682","Latitude":"59.9714384","MarketId":13959},{"__type":"NG.Portal.Meny.Web.Templates.Util.Market","Name":"MENY Snarøya","Address":"SNARØYA Snarøyveien 139","Longitude":"10.610615","Latitude":"59.8819565","MarketId":13903},{"__type":"NG.Portal.Meny.Web.Templates.Util.Market","Name":"Meny Strømmen","Address":"STRØMMEN Stasjonsveien 8","Longitude":"11.0053710","Latitude":"59.9468248","MarketId":26915},{"__type":"NG.Portal.Meny.Web.Templates.Util.Market","Name":"MENY Tangen","Address":"NESODDTANGEN Tangen Centrum","Longitude":"10.660833","Latitude":"59.8559266","MarketId":13928},{"__type":"NG.Portal.Meny.Web.Templates.Util.Market","Name":"MENY Tårnåsen","Address":"TÅRNÅSEN Vallhallveien 70","Longitude":"10.8141068","Latitude":"59.8190562","MarketId":14006},{"__type":"NG.Portal.Meny.Web.Templates.Util.Market","Name":"Meny Vøyenenga","Address":"VØYENENGA Vøyenengtunet 14","Longitude":"10.4767658","Latitude":"59.9086458","MarketId":26914},{"__type":"NG.Portal.Meny.Web.Templates.Util.Market","Name":"MENY Østerås","Address":"ØSTERÅS Otto Rugesvei 80","Longitude":"10.6071701","Latitude":"59.9445892","MarketId":13995},{"__type":"NG.Portal.Meny.Web.Templates.Util.Market","Name":"MENY Åneby","Address":"HAKADAL Ånebyveien 17","Longitude":"10.8721927","Latitude":"60.0888476","MarketId":14005},{"__type":"NG.Portal.Meny.Web.Templates.Util.Market","Name":"MENY Arena","Address":"ARENDAL Vesterveien 4, Arenasenteret","Longitude":"8.766403198242187","Latitude":"58.45958787833839","MarketId":14021},{"__type":"NG.Portal.Meny.Web.Templates.Util.Market","Name":"MENY Fevik","Address":"FEVIK Feviktoppen Sømsveien","Longitude":"8.6762515","Latitude":"58.3796001","MarketId":14022},{"__type":"NG.Portal.Meny.Web.Templates.Util.Market","Name":"MENY Grimstad","Address":"GRIMSTAD Bark Silasvei 7","Longitude":"8.594497","Latitude":"58.3447518","MarketId":13937},{"__type":"NG.Portal.Meny.Web.Templates.Util.Market","Name":"Meny Harebakken","Address":"ARENDAL Langsæveien 5","Longitude":"8.7470991","Latitude":"58.4743201","MarketId":26912},{"__type":"NG.Portal.Meny.Web.Templates.Util.Market","Name":"MENY Krøgenes","Address":"ARENDAL Tromøyveien 1","Longitude":"8.8139853","Latitude":"58.4725075","MarketId":13987},{"__type":"NG.Portal.Meny.Web.Templates.Util.Market","Name":"MENY Lillesand","Address":"LILLESAND Senterveien 10","Longitude":"8.3944238","Latitude":"58.2609767","MarketId":26721},{"__type":"NG.Portal.Meny.Web.Templates.Util.Market","Name":"MENY Stoa","Address":"ARENDAL Åsbieveien 2","Longitude":"8.7117695","Latitude":"58.4587516","MarketId":13942},{"__type":"NG.Portal.Meny.Web.Templates.Util.Market","Name":"MENY Tvedestrand","Address":"TVEDESTRAND Bergsmyr","Longitude":"8.9153807","Latitude":"58.6288883","MarketId":14034},{"__type":"NG.Portal.Meny.Web.Templates.Util.Market","Name":"MENY Brakerøya","Address":"DRAMMEN Brantenborggt. 1","Longitude":"10.222091674804687","Latitude":"59.74095801985141","MarketId":13973},{"__type":"NG.Portal.Meny.Web.Templates.Util.Market","Name":"MENY Gol","Address":"GOL Furuvegen 6","Longitude":"8.9448303","Latitude":"60.7002104","MarketId":13926},{"__type":"NG.Portal.Meny.Web.Templates.Util.Market","Name":"MENY Gulskogen","Address":"DRAMMEN Guldlisten 35","Longitude":"10.1599119","Latitude":"59.7416205","MarketId":14016},{"__type":"NG.Portal.Meny.Web.Templates.Util.Market","Name":"MENY Konnerud","Address":"DRAMMEN Pettersvolden 3","Longitude":"10.1488999","Latitude":"59.7178564","MarketId":13986},{"__type":"NG.Portal.Meny.Web.Templates.Util.Market","Name":"MENY Krokstadelva","Address":"KROKSTADELVA Kjerraten 3","Longitude":"9.99504804611206","Latitude":"59.75802697942225","MarketId":13952},{"__type":"NG.Portal.Meny.Web.Templates.Util.Market","Name":"MENY Kuben","Address":"HØNEFOSS Kong Ringsgate 1","Longitude":"10.2554779","Latitude":"60.1648442","MarketId":14055},{"__type":"NG.Portal.Meny.Web.Templates.Util.Market","Name":"MENY Liertoppen","Address":"LIERSKOGEN Drammensveien 201","Longitude":"10.30019760131836","Latitude":"59.80959160611057","MarketId":14029},{"__type":"NG.Portal.Meny.Web.Templates.Util.Market","Name":"MENY Osloveien","Address":"HØNEFOSS Dronning Åstasgt 4","Longitude":"10.2549508","Latitude":"60.1533778","MarketId":22722},{"__type":"NG.Portal.Meny.Web.Templates.Util.Market","Name":"MENY Sandsværveien","Address":"KONGSBERG Sandsværvn. 164","Longitude":"9.6402834","Latitude":"59.6468140","MarketId":13914},{"__type":"NG.Portal.Meny.Web.Templates.Util.Market","Name":"MENY Slemmestad","Address":"SLEMMESTAD Kirkealleen 1","Longitude":"10.4861348","Latitude":"59.7777909","MarketId":13999},{"__type":"NG.Portal.Meny.Web.Templates.Util.Market","Name":"MENY Stortorvet","Address":"KONGSBERG Stortorvet/Karchesgt.3","Longitude":"9.6506329","Latitude":"59.6692341","MarketId":13936},{"__type":"NG.Portal.Meny.Web.Templates.Util.Market","Name":"MENY Union Brygge","Address":"DRAMMEN Grønland 43-45","Longitude":"10.1938583","Latitude":"59.7431408","MarketId":22524},{"__type":"NG.Portal.Meny.Web.Templates.Util.Market","Name":"MENY Åmot","Address":"ÅMOT Lilleåsgaten","Longitude":"9.9259012","Latitude":"59.8929189","MarketId":14018},{"__type":"NG.Portal.Meny.Web.Templates.Util.Market","Name":"MENY Åssiden","Address":"DRAMMEN Ing. Rybergs gate 56 B","Longitude":"10.1366558","Latitude":"59.7538322","MarketId":13953},{"__type":"NG.Portal.Meny.Web.Templates.Util.Market","Name":"MENY Elverum","Address":"ELVERUM Kremmertorget Kirkeveien 4","Longitude":"11.5666202","Latitude":"60.8812306","MarketId":13925},{"__type":"NG.Portal.Meny.Web.Templates.Util.Market","Name":"MENY Hamar","Address":"HAMAR Aslak Boltsgate 48","Longitude":"11.04659","Latitude":"60.7987","MarketId":27506},{"__type":"NG.Portal.Meny.Web.Templates.Util.Market","Name":"MENY Kongsvinger","Address":"KONGSVINGER Tommelstadsgt 1","Longitude":"11.9967873","Latitude":"60.1916596","MarketId":13938},{"__type":"NG.Portal.Meny.Web.Templates.Util.Market","Name":"MENY Arken","Address":"ULSET Åsane Senter","Longitude":"5.3217815","Latitude":"60.4667708","MarketId":13980},{"__type":"NG.Portal.Meny.Web.Templates.Util.Market","Name":"MENY Bergen Storsenter","Address":"BERGEN Strømsgt. 8","Longitude":"5.3318774","Latitude":"60.3880761","MarketId":13981},{"__type":"NG.Portal.Meny.Web.Templates.Util.Market","Name":"MENY Dolviken","Address":"SØREIDGREND Dolvikvegen 36","Longitude":"5.2733740","Latitude":"60.3085244","MarketId":14041},{"__type":"NG.Portal.Meny.Web.Templates.Util.Market","Name":"MENY Fantoft","Address":"BERGEN Fantoftveien 16","Longitude":"5.35185","Latitude":"60.34601","MarketId":27503},{"__type":"NG.Portal.Meny.Web.Templates.Util.Market","Name":"MENY Industriveien","Address":"OS Industriveien 2","Longitude":"5.4492121","Latitude":"60.2052329","MarketId":14032},{"__type":"NG.Portal.Meny.Web.Templates.Util.Market","Name":"MENY Kleppestø","Address":"KLEPPESTØ ","Longitude":"5.218654","Latitude":"60.409139","MarketId":14035},{"__type":"NG.Portal.Meny.Web.Templates.Util.Market","Name":"MENY Knarvik","Address":"ISDALSTØ Kvernhusmyrane 7A","Longitude":"5.28568","Latitude":"60.54704","MarketId":27482},{"__type":"NG.Portal.Meny.Web.Templates.Util.Market","Name":"MENY Lagunen","Address":"RÅDAL Laguneveien 1","Longitude":"5.33102","Latitude":"60.29687","MarketId":27504},{"__type":"NG.Portal.Meny.Web.Templates.Util.Market","Name":"MENY Leirvik","Address":"STORD Hamnegata 11","Longitude":"5.4996686","Latitude":"59.7789605","MarketId":14020},{"__type":"NG.Portal.Meny.Web.Templates.Util.Market","Name":"MENY Midtun","Address":"NESTTUN Sandbrekkevn.96","Longitude":"5.36746","Latitude":"60.3257","MarketId":27508},{"__type":"NG.Portal.Meny.Web.Templates.Util.Market","Name":"MENY Nesttun","Address":"NESTTUN Nesttunveien 90","Longitude":"5.3540006","Latitude":"60.3199747","MarketId":14024},{"__type":"NG.Portal.Meny.Web.Templates.Util.Market","Name":"MENY Oasen Bergen","Address":"FYLLINGSDALEN Folke Bernadottesvei 50","Longitude":"5.2902992","Latitude":"60.3489392","MarketId":13947},{"__type":"NG.Portal.Meny.Web.Templates.Util.Market","Name":"MENY Ravnanger","Address":"HAUGLANDSHELLA ","Longitude":"5.151150226593018","Latitude":"60.460095486094474","MarketId":14036},{"__type":"NG.Portal.Meny.Web.Templates.Util.Market","Name":"MENY Sartor","Address":"Straume Bildøy vegen 11 a","Longitude":"5.12341","Latitude":"60.35847","MarketId":27479},{"__type":"NG.Portal.Meny.Web.Templates.Util.Market","Name":"MENY Sletten","Address":"BERGEN Vilhelm Bjerknes vei 4","Longitude":"5.3596681","Latitude":"60.3565043","MarketId":13990},{"__type":"NG.Portal.Meny.Web.Templates.Util.Market","Name":"MENY Støletorget","Address":"BERGEN Stølegaten 15","Longitude":"5.32543","Latitude":"60.39978","MarketId":27522},{"__type":"NG.Portal.Meny.Web.Templates.Util.Market","Name":"Meny Vestkanten","Address":"LODDEFJORD Vestkanten Storsenter","Longitude":"5.23347","Latitude":"60.36322","MarketId":27505},{"__type":"NG.Portal.Meny.Web.Templates.Util.Market","Name":"MENY Voss","Address":"VOSS Hardangervegen 25","Longitude":"6.4360493","Latitude":"60.6299968","MarketId":14025},{"__type":"NG.Portal.Meny.Web.Templates.Util.Market","Name":"Meny Åsane Storsenter","Address":"ULSET Åsane Senter 21","Longitude":"5.3220753","Latitude":"60.4653216","MarketId":26935},{"__type":"NG.Portal.Meny.Web.Templates.Util.Market","Name":"MENY Fosnavåg","Address":"FOSNAVÅG Holmsild vei","Longitude":"5.6328903","Latitude":"62.3422412","MarketId":13997},{"__type":"NG.Portal.Meny.Web.Templates.Util.Market","Name":"MENY Hatlane","Address":"ÅLESUND Hatlane","Longitude":"6.2624747","Latitude":"62.4577716","MarketId":14011},{"__type":"NG.Portal.Meny.Web.Templates.Util.Market","Name":"MENY Lerstad","Address":"ÅLESUND Lerstadvegen 291","Longitude":"6.2907403","Latitude":"62.4681343","MarketId":13989},{"__type":"NG.Portal.Meny.Web.Templates.Util.Market","Name":"Meny Magneten","Address":"LEVANGER Magneten Senter","Longitude":"11.3004934","Latitude":"63.7463571","MarketId":26910},{"__type":"NG.Portal.Meny.Web.Templates.Util.Market","Name":"MENY Verdal","Address":"VERDAL Jernbanegata 7","Longitude":"11.4852003","Latitude":"63.7904471","MarketId":14026},{"__type":"NG.Portal.Meny.Web.Templates.Util.Market","Name":"MENY Leira","Address":"LEIRA I VALDRES Markaveien 2","Longitude":"9.2896576","Latitude":"60.9705996","MarketId":13985},{"__type":"NG.Portal.Meny.Web.Templates.Util.Market","Name":"MENY Alna","Address":"OSLO strømsveien 245","Longitude":"10.8471273","Latitude":"59.9279913","MarketId":22529},{"__type":"NG.Portal.Meny.Web.Templates.Util.Market","Name":"Meny Bjølsen","Address":"OSLO Moldegata 1","Longitude":"10.7609367","Latitude":"59.9430507","MarketId":26913},{"__type":"NG.Portal.Meny.Web.Templates.Util.Market","Name":"MENY Bogstadveien","Address":"OSLO Bogstadv 36","Longitude":"10.7205879","Latitude":"59.9268206","MarketId":13908},{"__type":"NG.Portal.Meny.Web.Templates.Util.Market","Name":"MENY Carl Berner","Address":"OSLO Trondheimsv 113","Longitude":"10.7766567","Latitude":"59.9269133","MarketId":14015},{"__type":"NG.Portal.Meny.Web.Templates.Util.Market","Name":"MENY CC Vest","Address":"OSLO Lilleakerv 16","Longitude":"10.6369475","Latitude":"59.9174789","MarketId":14052},{"__type":"NG.Portal.Meny.Web.Templates.Util.Market","Name":"MENY Colosseum","Address":"OSLO Sørkedalsv 10 B","Longitude":"10.7126839","Latitude":"59.9302881","MarketId":13961},{"__type":"NG.Portal.Meny.Web.Templates.Util.Market","Name":"MENY Grorud","Address":"OSLO Bergensvn. 2-4","Longitude":"10.8825070","Latitude":"59.9613273","MarketId":13957},{"__type":"NG.Portal.Meny.Web.Templates.Util.Market","Name":"MENY Grønland Torg","Address":"OSLO Smalgangen 49","Longitude":"10.7606869","Latitude":"59.9123845","MarketId":13907},{"__type":"NG.Portal.Meny.Web.Templates.Util.Market","Name":"MENY Holmlia","Address":"OSLO Holmlia Senter","Longitude":"10.7956357","Latitude":"59.8350192","MarketId":13927},{"__type":"NG.Portal.Meny.Web.Templates.Util.Market","Name":"MENY Kalbakken","Address":"OSLO Kalbakkveien 6","Longitude":"10.8689138","Latitude":"59.9520451","MarketId":13943},{"__type":"NG.Portal.Meny.Web.Templates.Util.Market","Name":"MENY Kringsjå","Address":"OSLO Minister Ditleffsv. 21","Longitude":"10.7371789","Latitude":"59.9633209","MarketId":13909},{"__type":"NG.Portal.Meny.Web.Templates.Util.Market","Name":"MENY Lambertseter","Address":"OSLO Cecilie Thoresensvei 21","Longitude":"10.8112009","Latitude":"59.8750154","MarketId":20352},{"__type":"NG.Portal.Meny.Web.Templates.Util.Market","Name":"MENY Løren","Address":"OSLO Lørenveien 44","Longitude":"10.79355239868164","Latitude":"59.9305277030432","MarketId":14033},{"__type":"NG.Portal.Meny.Web.Templates.Util.Market","Name":"MENY Manglerud","Address":"OSLO Manglerud Senter Plogveien6","Longitude":"10.8140179","Latitude":"59.8974518","MarketId":13994},{"__type":"NG.Portal.Meny.Web.Templates.Util.Market","Name":"MENY Oppsal","Address":"OSLO Haakon Tveters v 90","Longitude":"10.8395479","Latitude":"59.8940659","MarketId":13983},{"__type":"NG.Portal.Meny.Web.Templates.Util.Market","Name":"MENY Oslo City","Address":"OSLO Stenersgaten 1","Longitude":"10.7527782","Latitude":"59.9131625","MarketId":13906},{"__type":"NG.Portal.Meny.Web.Templates.Util.Market","Name":"MENY Ringnes Park","Address":"OSLO Sannergata 6 C","Longitude":"10.7585097","Latitude":"59.928339","MarketId":14040},{"__type":"NG.Portal.Meny.Web.Templates.Util.Market","Name":"MENY Røa","Address":"OSLO Vækerøv 205","Longitude":"10.6432341","Latitude":"59.9477865","MarketId":13962},{"__type":"NG.Portal.Meny.Web.Templates.Util.Market","Name":"MENY Stovner","Address":"OSLO Stovner Senter 3","Longitude":"10.9244987","Latitude":"59.9624888","MarketId":22528},{"__type":"NG.Portal.Meny.Web.Templates.Util.Market","Name":"MENY Tveita","Address":"OSLO Tvetenv 150","Longitude":"10.841512","Latitude":"59.9132455","MarketId":13958},{"__type":"NG.Portal.Meny.Web.Templates.Util.Market","Name":"MENY Vika","Address":"OSLO Ruseløkkv 26","Longitude":"10.7278056","Latitude":"59.9134562","MarketId":13975},{"__type":"NG.Portal.Meny.Web.Templates.Util.Market","Name":"MENY Vollebekk","Address":"OSLO Brobekkveien 52","Longitude":"10.8257071","Latitude":"59.9365007","MarketId":13993},{"__type":"NG.Portal.Meny.Web.Templates.Util.Market","Name":"Helgø Meny Bogafjell","Address":"SANDNES Bogafjellveien 65","Longitude":"5.7418143","Latitude":"58.8345937","MarketId":26596},{"__type":"NG.Portal.Meny.Web.Templates.Util.Market","Name":"Helgø MENY Hillevåg","Address":"STAVANGER Gartnerveien 4","Longitude":"5.7404460","Latitude":"58.9492958","MarketId":13931},{"__type":"NG.Portal.Meny.Web.Templates.Util.Market","Name":"Helgø MENY Hundvåg","Address":"HUNDVÅG Hundvågveien 49","Longitude":"5.7308343","Latitude":"58.9941473","MarketId":13998},{"__type":"NG.Portal.Meny.Web.Templates.Util.Market","Name":"Helgø Meny Jørpeland","Address":"JØRPELAND Oldeidgården","Longitude":"6.0414875","Latitude":"59.0220847","MarketId":26586},{"__type":"NG.Portal.Meny.Web.Templates.Util.Market","Name":"Helgø Meny Kvadrat","Address":"SANDNES Gamle Stokkavei 1","Longitude":"5.7218990","Latitude":"58.8764279","MarketId":26588},{"__type":"NG.Portal.Meny.Web.Templates.Util.Market","Name":"Helgø Meny Mariero","Address":"STAVANGER Breidablikkvn. 3","Longitude":"5.7394761","Latitude":"58.9342909","MarketId":26585},{"__type":"NG.Portal.Meny.Web.Templates.Util.Market","Name":"Helgø Meny Sandnes","Address":"SANDNES Gravarsveien 7","Longitude":"5.7396610","Latitude":"58.8482871","MarketId":26916},{"__type":"NG.Portal.Meny.Web.Templates.Util.Market","Name":"Helgø Meny Sandved","Address":"SANDNES Åsheimveien 2","Longitude":"5.7164679","Latitude":"58.8461053","MarketId":26597},{"__type":"NG.Portal.Meny.Web.Templates.Util.Market","Name":"Helgø Meny Sola","Address":"SOLA Solakrossveien 2","Longitude":"5.6504149","Latitude":"58.8831152","MarketId":26598},{"__type":"NG.Portal.Meny.Web.Templates.Util.Market","Name":"Helgø MENY Stadionparken","Address":"STAVANGER Jåttåvågveien 7","Longitude":"5.7295753","Latitude":"58.9155437","MarketId":22525},{"__type":"NG.Portal.Meny.Web.Templates.Util.Market","Name":"Helgø Meny Stokka","Address":"STAVANGER Øvre Stokkavei 46","Longitude":"5.7027188","Latitude":"58.9649885","MarketId":26587},{"__type":"NG.Portal.Meny.Web.Templates.Util.Market","Name":"Helgø MENY Straen","Address":"STAVANGER Lars Hertervigs gate 6","Longitude":"5.725841","Latitude":"58.9643099","MarketId":13930},{"__type":"NG.Portal.Meny.Web.Templates.Util.Market","Name":"Helgø Meny Tasta","Address":"STAVANGER Tastatunet 1-3","Longitude":"5.69098","Latitude":"58.984","MarketId":27035},{"__type":"NG.Portal.Meny.Web.Templates.Util.Market","Name":"MENY Aksdal","Address":"AKSDAL Aksdal senter","Longitude":"5.447931289672852","Latitude":"59.42272750081453","MarketId":14019},{"__type":"NG.Portal.Meny.Web.Templates.Util.Market","Name":"MENY Gard","Address":"HAUGESUND Nygårdsvn. 6","Longitude":"5.2633525","Latitude":"59.4267325","MarketId":14056},{"__type":"NG.Portal.Meny.Web.Templates.Util.Market","Name":"MENY Karmsundgata","Address":"HAUGESUND Karmsundgt. 60","Longitude":"5.2887426","Latitude":"59.4044838","MarketId":14042},{"__type":"NG.Portal.Meny.Web.Templates.Util.Market","Name":"MENY Oasen Haugesund","Address":"KARMSUND Oasen Storsenter","Longitude":"5.3082121","Latitude":"59.3777857","MarketId":13933},{"__type":"NG.Portal.Meny.Web.Templates.Util.Market","Name":"MENY Vedavågen","Address":"VEDAVÅGEN Industriområdet Vea Øst","Longitude":"5.242173671722412","Latitude":"59.277184747458705","MarketId":14004},{"__type":"NG.Portal.Meny.Web.Templates.Util.Market","Name":"MENY Sogndal","Address":"SOGNDAL Hoveveeien 8","Longitude":"7.1034792","Latitude":"61.2323575","MarketId":13988},{"__type":"NG.Portal.Meny.Web.Templates.Util.Market","Name":"MENY Lade","Address":"TRONDHEIM Haakon VII\u0027s gate 25","Longitude":"10.460153818130493","Latitude":"63.439247228099916","MarketId":22527},{"__type":"NG.Portal.Meny.Web.Templates.Util.Market","Name":"Meny Moholt","Address":"TRONDHEIM Vegamot 8","Longitude":"10.4432180","Latitude":"63.4095892","MarketId":26934},{"__type":"NG.Portal.Meny.Web.Templates.Util.Market","Name":"MENY Solsiden","Address":"TRONDHEIM Beddingen 12","Longitude":"10.4115087","Latitude":"63.4353451","MarketId":22526},{"__type":"NG.Portal.Meny.Web.Templates.Util.Market","Name":"MENY Tiller","Address":"TILLER Ivar Lykkes vei 3","Longitude":"10.3749927","Latitude":"63.3588154","MarketId":15073},{"__type":"NG.Portal.Meny.Web.Templates.Util.Market","Name":"MENY Borgestad","Address":"SKIEN Gregorius Dagsonsgt. 221","Longitude":"9.6509041","Latitude":"59.1700539","MarketId":13916},{"__type":"NG.Portal.Meny.Web.Templates.Util.Market","Name":"MENY Bø","Address":"BØ I TELEMARK Stasjonsveien 28","Longitude":"9.0703793","Latitude":"59.4116105","MarketId":14048},{"__type":"NG.Portal.Meny.Web.Templates.Util.Market","Name":"MENY Flåtten","Address":"PORSGRUNN DEICHMANSGT.109","Longitude":"9.6593905","Latitude":"59.1216883","MarketId":13911},{"__type":"NG.Portal.Meny.Web.Templates.Util.Market","Name":"MENY Herkules","Address":"SKIEN Ulefossveien 32 b","Longitude":"9.6044006","Latitude":"59.1960413","MarketId":14050},{"__type":"NG.Portal.Meny.Web.Templates.Util.Market","Name":"MENY Hovenga","Address":"PORSGRUNN Augestadveien7","Longitude":"9.6619773","Latitude":"59.1496601","MarketId":13979},{"__type":"NG.Portal.Meny.Web.Templates.Util.Market","Name":"MENY Kragerø Sentrum","Address":"KRAGERØ Rådhusgata 4","Longitude":"9.4108172","Latitude":"58.867873","MarketId":13917},{"__type":"NG.Portal.Meny.Web.Templates.Util.Market","Name":"MENY Kvantum","Address":"NOTODDEN Merdevn.22","Longitude":"9.2157838","Latitude":"59.5665398","MarketId":13915},{"__type":"NG.Portal.Meny.Web.Templates.Util.Market","Name":"MENY Lietorvet","Address":"SKIEN Liegata 10 -12","Longitude":"9.6046961","Latitude":"59.2101504","MarketId":14030},{"__type":"NG.Portal.Meny.Web.Templates.Util.Market","Name":"MENY Myren","Address":"SKIEN Sliperivegen 11","Longitude":"9.5889717","Latitude":"59.2009689","MarketId":14031},{"__type":"NG.Portal.Meny.Web.Templates.Util.Market","Name":"MENY PP Senteret","Address":"PORSGRUNN Vestregt. 21","Longitude":"9.6416026","Latitude":"59.1411289","MarketId":13929},{"__type":"NG.Portal.Meny.Web.Templates.Util.Market","Name":"MENY Rising","Address":"SKIEN Luksefjellveien 53","Longitude":"9.5987705","Latitude":"59.2295302","MarketId":13992},{"__type":"NG.Portal.Meny.Web.Templates.Util.Market","Name":"MENY Rjukan","Address":"RJUKAN Sam Eydesgate 211","Longitude":"8.6251201","Latitude":"59.8802467","MarketId":13974},{"__type":"NG.Portal.Meny.Web.Templates.Util.Market","Name":"MENY Saga","Address":"SKIEN Telemarksveien 14","Longitude":"9.6138285","Latitude":"59.1855170","MarketId":13939},{"__type":"NG.Portal.Meny.Web.Templates.Util.Market","Name":"MENY Seljord","Address":"SELJORD Telesenteret","Longitude":"8.6217692","Latitude":"59.4819613","MarketId":13918},{"__type":"NG.Portal.Meny.Web.Templates.Util.Market","Name":"MENY Skjelsvik","Address":"PORSGRUNN Gamle Postv 1","Longitude":"9.6854324","Latitude":"59.0953749","MarketId":13970},{"__type":"NG.Portal.Meny.Web.Templates.Util.Market","Name":"MENY Stathelle","Address":"STATHELLE Krabberødveien 1","Longitude":"9.6928046","Latitude":"59.0440636","MarketId":13969},{"__type":"NG.Portal.Meny.Web.Templates.Util.Market","Name":"MENY Telemarksporten","Address":"PORSGRUNN Prestemoen 6","Longitude":"9.7095691","Latitude":"59.1211643","MarketId":14054},{"__type":"NG.Portal.Meny.Web.Templates.Util.Market","Name":"Meny Tuven","Address":"NOTODDEN Tuvenbøygen 2","Longitude":"9.2226666","Latitude":"59.5661816","MarketId":26006},{"__type":"NG.Portal.Meny.Web.Templates.Util.Market","Name":"MENY Ulefoss","Address":"ULEFOSS Stårrvegen 14","Longitude":"9.2688563","Latitude":"59.2813454","MarketId":13977},{"__type":"NG.Portal.Meny.Web.Templates.Util.Market","Name":"MENY Albert","Address":"KRISTIANSAND S Olav Trygvassonsvei 3","Longitude":"8.035597801208496","Latitude":"58.16610765996331","MarketId":13934},{"__type":"NG.Portal.Meny.Web.Templates.Util.Market","Name":"MENY Grim","Address":"KRISTIANSAND S Grims Torv 3","Longitude":"7.9723300","Latitude":"58.1491639","MarketId":13955},{"__type":"NG.Portal.Meny.Web.Templates.Util.Market","Name":"MENY Mandal","Address":"MANDAL Kastellgata 12 D","Longitude":"7.4515214","Latitude":"58.0240981","MarketId":14051},{"__type":"NG.Portal.Meny.Web.Templates.Util.Market","Name":"MENY Vennesla","Address":"VENNESLA Sentrumsvegen 63","Longitude":"7.9696742","Latitude":"58.2717894","MarketId":14023},{"__type":"NG.Portal.Meny.Web.Templates.Util.Market","Name":"MENY Vågsbygd","Address":"KRISTIANSAND S Sagmyra 7","Longitude":"7.9527981","Latitude":"58.1113833","MarketId":24854},{"__type":"NG.Portal.Meny.Web.Templates.Util.Market","Name":"MENY Andebu","Address":"ANDEBU Andebu Sentrum 21","Longitude":"10.1767794","Latitude":"59.3051381","MarketId":24857},{"__type":"NG.Portal.Meny.Web.Templates.Util.Market","Name":"MENY Borre","Address":"HORTEN Borreveien 92","Longitude":"10.4627482","Latitude":"59.3936430","MarketId":13923},{"__type":"NG.Portal.Meny.Web.Templates.Util.Market","Name":"MENY Eiktoppen","Address":"TØNSBERG Eikveien 49","Longitude":"10.4192951","Latitude":"59.2921833","MarketId":13920},{"__type":"NG.Portal.Meny.Web.Templates.Util.Market","Name":"MENY Farmandstredet","Address":"TØNSBERG Jernbanegt. 1D","Longitude":"10.4121719","Latitude":"59.2700986","MarketId":14049},{"__type":"NG.Portal.Meny.Web.Templates.Util.Market","Name":"MENY Fritzøe Brygge","Address":"LARVIK Fritzøe Brygge","Longitude":"10.020475387573242","Latitude":"59.04973741912621","MarketId":14028},{"__type":"NG.Portal.Meny.Web.Templates.Util.Market","Name":"MENY Gloppe","Address":"LARVIK Nordlyveien 1","Longitude":"10.0675318","Latitude":"59.0406180","MarketId":13912},{"__type":"NG.Portal.Meny.Web.Templates.Util.Market","Name":"MENY Haslesenteret","Address":"SANDEFJORD Nedre Gokstadvei 27","Longitude":"10.2425121","Latitude":"59.1393060","MarketId":14000},{"__type":"NG.Portal.Meny.Web.Templates.Util.Market","Name":"MENY Heimdal","Address":"TØNSBERG Heimdalsveien 3","Longitude":"10.425639152526855","Latitude":"59.274257658546965","MarketId":14017},{"__type":"NG.Portal.Meny.Web.Templates.Util.Market","Name":"MENY Helgeroa","Address":"HELGEROA Søndersrød","Longitude":"9.8705436","Latitude":"58.9852716","MarketId":13913},{"__type":"NG.Portal.Meny.Web.Templates.Util.Market","Name":"MENY Hof","Address":"HOF Thorshaugvn. 1","Longitude":"10.0877134","Latitude":"59.5297844","MarketId":13964},{"__type":"NG.Portal.Meny.Web.Templates.Util.Market","Name":"MENY Holmestrand","Address":"HOLMESTRAND Hvittingfossvn. 123","Longitude":"10.2944015","Latitude":"59.4909148","MarketId":13963},{"__type":"NG.Portal.Meny.Web.Templates.Util.Market","Name":"MENY Horten","Address":"HORTEN Dampejordet 1","Longitude":"10.4536000","Latitude":"59.4279694","MarketId":14043},{"__type":"NG.Portal.Meny.Web.Templates.Util.Market","Name":"MENY Indre Havn Sandefjord","Address":"SANDEFJORD Kilgata 25","Longitude":"10.2405727","Latitude":"59.1282500","MarketId":13967},{"__type":"NG.Portal.Meny.Web.Templates.Util.Market","Name":"MENY Jarlsberg","Address":"SEM Travveien 3","Longitude":"10.3669326","Latitude":"59.2807885","MarketId":13922},{"__type":"NG.Portal.Meny.Web.Templates.Util.Market","Name":"MENY Larvik Sentrum","Address":"LARVIK Olavsgt. 12","Longitude":"10.032417","Latitude":"59.0537277","MarketId":24600},{"__type":"NG.Portal.Meny.Web.Templates.Util.Market","Name":"MENY Nanset Larvik","Address":"LARVIK Yttersøveien 2","Longitude":"10.0475913","Latitude":"59.0692785","MarketId":13944},{"__type":"NG.Portal.Meny.Web.Templates.Util.Market","Name":"MENY Nøtterøy","Address":"SKALLESTAD Skallestadveien 2","Longitude":"10.4414836","Latitude":"59.2041254","MarketId":13921},{"__type":"NG.Portal.Meny.Web.Templates.Util.Market","Name":"MENY Pindsle","Address":"SANDEFJORD Nygårdsveien 84","Longitude":"10.1888584","Latitude":"59.1370223","MarketId":14027},{"__type":"NG.Portal.Meny.Web.Templates.Util.Market","Name":"MENY Revetal","Address":"REVETAL Kåpeveien 5","Longitude":"10.264577865600586","Latitude":"59.37195414982846","MarketId":13954},{"__type":"NG.Portal.Meny.Web.Templates.Util.Market","Name":"MENY Råel","Address":"TØNSBERG Lunasvei 2","Longitude":"10.4536666","Latitude":"59.2667358","MarketId":14009},{"__type":"NG.Portal.Meny.Web.Templates.Util.Market","Name":"MENY Sande","Address":"SANDE I VESTFOLD Revåvn. 5","Longitude":"10.2079141","Latitude":"59.5874945","MarketId":13919},{"__type":"NG.Portal.Meny.Web.Templates.Util.Market","Name":"MENY Stadiontunet","Address":"SANDEFJORD Laskenveien 4","Longitude":"10.2048709","Latitude":"59.1347749","MarketId":14001},{"__type":"NG.Portal.Meny.Web.Templates.Util.Market","Name":"MENY Stavern","Address":"STAVERN Kommandør Herbstg 12","Longitude":"10.0342297","Latitude":"58.9996516","MarketId":13991},{"__type":"NG.Portal.Meny.Web.Templates.Util.Market","Name":"MENY Stokke","Address":"STOKKE Melsomvikveien 8","Longitude":"10.3439473","Latitude":"59.2439276","MarketId":14010},{"__type":"NG.Portal.Meny.Web.Templates.Util.Market","Name":"MENY Teie Torg","Address":"NØTTERØY Ørsnesveien 37a","Longitude":"10.415886640548706","Latitude":"59.25176440103093","MarketId":13956},{"__type":"NG.Portal.Meny.Web.Templates.Util.Market","Name":"MENY Tolvsrød","Address":"TOLVSRØD Valløveien 31","Longitude":"10.4624674","Latitude":"59.2726775","MarketId":13951},{"__type":"NG.Portal.Meny.Web.Templates.Util.Market","Name":"MENY Øya Larvik","Address":"LARVIK Tjøllingveien 45","Longitude":"10.0617149","Latitude":"59.0443537","MarketId":13946},{"__type":"NG.Portal.Meny.Web.Templates.Util.Market","Name":"MENY Åsane","Address":"SANDEFJORD Hystadveien 290","Longitude":"10.2216723","Latitude":"59.1064257","MarketId":14039},{"__type":"NG.Portal.Meny.Web.Templates.Util.Market","Name":"MENY Åsgårdstrand","Address":"ÅSGÅRDSTRAND Grev Wedelsgt. 40","Longitude":"10.4639546","Latitude":"59.3493247","MarketId":14053},{"__type":"NG.Portal.Meny.Web.Templates.Util.Market","Name":"MENY Askim","Address":"ASKIM Haugomgata 17","Longitude":"11.1683514","Latitude":"59.5818463","MarketId":13949},{"__type":"NG.Portal.Meny.Web.Templates.Util.Market","Name":"MENY Begby","Address":"GAMLE FREDRIKSTAD Olav Kyrresvei 2","Longitude":"11.0073614","Latitude":"59.2167215","MarketId":13905},{"__type":"NG.Portal.Meny.Web.Templates.Util.Market","Name":"MENY Halden","Address":"HALDEN Walkersgt. 4","Longitude":"11.3829172","Latitude":"59.1216171","MarketId":13948},{"__type":"NG.Portal.Meny.Web.Templates.Util.Market","Name":"MENY Høyden","Address":"MOSS Ryggeveien 96 Høyden","Longitude":"10.6854350","Latitude":"59.4172178","MarketId":13996},{"__type":"NG.Portal.Meny.Web.Templates.Util.Market","Name":"MENY Mosseporten","Address":"MOSS Patterødveien 2","Longitude":"10.7028095","Latitude":"59.4467773","MarketId":13972},{"__type":"NG.Portal.Meny.Web.Templates.Util.Market","Name":"MENY Sarpsborg","Address":"SARPSBORG Roald Amundsensgate 28","Longitude":"11.1077921","Latitude":"59.2842405","MarketId":23825},{"__type":"NG.Portal.Meny.Web.Templates.Util.Market","Name":"MENY Stopp Tune","Address":"SARPSBORG Lilletunveien 2","Longitude":"11.3279007","Latitude":"59.2558286","MarketId":14003},{"__type":"NG.Portal.Meny.Web.Templates.Util.Market","Name":"MENY Wilbergjordet","Address":"FREDRIKSTAD Rolvsøyveien 71","Longitude":"10.9820237","Latitude":"59.2441362","MarketId":13965},{"__type":"NG.Portal.Meny.Web.Templates.Util.Market","Name":"MENY Ørebekk","Address":"GRESSVIK Storveien 3 B","Longitude":"10.9107175","Latitude":"59.2295895","MarketId":14038},{"__type":"NG.Portal.Meny.Web.Templates.Util.Market","Name":"Meny Østfoldhallene","Address":"ROLVSØY Dikeveien 28","Longitude":"10.9932027","Latitude":"59.2516356","MarketId":26911}]}